{"type":"FeatureCollection","features":[{"type":"Feature","properties":{"name":"Kahire","arabicName":"القاهرة","img":"kahire.jpg","doc":"kahire.pdf","bilgi":"..."},"geometry":{"coordinates":[31.23855212778963,30.04149953871554],"type":"Point"}},{"type":"Feature","properties":{"name":"Fustat","arabicName":"الفسطاط","img":"fustat.jpg","doc":"fustat.pdf","bilgi":"..."},"geometry":{"coordinates":[31.236121535554815,30.009986285902613],"type":"Point"}},{"type":"Feature","properties":{"name":"Cize","arabicName":"الجيزة"},"geometry":{"coordinates":[31.21178677583788,29.985434799037748],"type":"Point"}},{"type":"Feature","properties":{"name":"Feyyum","arabicName":"الفيوم","img":"feyyum.jpg","doc":"feyyum.pdf","bilgi":"..."},"geometry":{"coordinates":[30.83954642019799,29.319276438088252],"type":"Point"}},{"type":"Feature","properties":{"name":"İskenderiye","arabicName":"الإسكندرية"},"geometry":{"coordinates":[29.896398190965243,31.18927186156054],"type":"Point"}},{"type":"Feature","properties":{"name":"Hulvan","arabicName":"حلوان"},"geometry":{"coordinates":[31.3341420767712,29.845334355388644],"type":"Point"}},{"type":"Feature","properties":{"name":"Dimyat","arabicName":"دمياط"},"geometry":{"coordinates":[31.81545366229787,31.415441586913957],"type":"Point"}},{"type":"Feature","properties":{"name":"Asyut","arabicName":"أسيوط"},"geometry":{"coordinates":[31.187140587961636,27.18128358008964],"type":"Point"}},{"type":"Feature","properties":{"name":"Kıft","arabicName":"قفط"},"geometry":{"coordinates":[32.81739586783064,26.002395296747494],"type":"Point"}},{"type":"Feature","properties":{"name":"Kus","arabicName":"القوصة"},"geometry":{"coordinates":[32.763012850503856,25.91416911029569],"type":"Point"}},{"type":"Feature","properties":{"name":"İsna","arabicName":"إسنا"},"geometry":{"coordinates":[32.55028383504765,25.2845343741419],"type":"Point"}},{"type":"Feature","properties":{"name":"Udfüv","arabicName":"إدفو"},"geometry":{"coordinates":[32.869959836793186,24.985404363106028],"type":"Point"}},{"type":"Feature","properties":{"name":"Esvan","arabicName":"أسوان"},"geometry":{"coordinates":[32.91105842548703,24.088715387333224],"type":"Point"}},{"type":"Feature","properties":{"name":"Raşid","arabicName":"رشيد"},"geometry":{"coordinates":[30.418527803345427,31.411864889720633],"type":"Point"}},{"type":"Feature","properties":{"name":"Kalzüm/Kulzüm","arabicName":"القلزم"},"geometry":{"coordinates":[32.53521126472532,29.973684476546282],"type":"Point"}},{"type":"Feature","properties":{"name":"İhmim","arabicName":"أخميم"},"geometry":{"coordinates":[31.74339800907501,26.56345576373502],"type":"Point"}},{"type":"Feature","properties":{"name":"Tinnis","arabicName":"تنيس"},"geometry":{"coordinates":[32.28486056626866,31.26277883455596],"type":"Point"}},{"type":"Feature","properties":{"name":"Busir","arabicName":"أبو صير"},"geometry":{"coordinates":[31.21925621273519,29.889912416256706],"type":"Point"}},{"type":"Feature","properties":{"name":"Behnesa?","arabicName":"البهنسا"},"geometry":{"coordinates":[30.665371878433263,28.534565050871407],"type":"Point"}},{"type":"Feature","properties":{"name":"Ferama","arabicName":"الفرما"},"geometry":{"coordinates":[32.5913796066647,31.049305916697307],"type":"Point"}}]}